[
    {
      "id": 1,
      "name": "Adana",
      "latitude": 37.0,
      "longitude": 35.3213333
    },
    {
      "id": 2,
      "name": "Adıyaman",
      "latitude": 37.7641667,
      "longitude": 38.2761667
    },
    {
      "id": 3,
      "name": "Afyon",
      "latitude": 38.7566667,
      "longitude": 30.5538889
    },
    {
      "id": 4,
      "name": "Ağrı",
      "latitude": 39.7216667,
      "longitude": 43.0566667
    },
    {
      "id": 5,
      "name": "Amasya",
      "latitude": 40.65,
      "longitude": 35.8333333
    },
    {
      "id": 6,
      "name": "Ankara",
      "latitude": 39.9272222,
      "longitude": 32.8644444
    },
    {
      "id": 7,
      "name": "Antalya",
      "latitude": 36.8841667,
      "longitude": 30.7050111
    },
    {
      "id": 8,
      "name": "Artvin",
      "latitude": 41.1833333,
      "longitude": 41.8166667
    },
    {
      "id": 9,
      "name": "Aydın",
      "latitude": 37.8444444,
      "longitude": 27.8458333
    },
    {
      "id": 10,
      "name": "Balıkesir",
      "latitude": 39.6484444,
      "longitude": 27.8891667
    },
    {
      "id": 11,
      "name": "Bilecik",
      "latitude": 40.15,
      "longitude": 29.9833333
    },
    {
      "id": 12,
      "name": "Bingöl",
      "latitude": 38.8852778,
      "longitude": 40.4983333
    },
    {
      "id": 13,
      "name": "Bitlis",
      "latitude": 38.4008333,
      "longitude": 42.1097222
    },
    {
      "id": 14,
      "name": "Bolu",
      "latitude": 40.7391667,
      "longitude": 31.6188889
    },
    {
      "id": 15,
      "name": "Burdur",
      "latitude": 37.7202778,
      "longitude": 30.2908333
    },
    {
      "id": 16,
      "name": "Bursa",
      "latitude": 40.1833333,
      "longitude": 29.0666667
    },
    {
      "id": 17,
      "name": "Çanakkale",
      "latitude": 40.155,
      "longitude": 26.4141667
    },
    {
      "id": 18,
      "name": "Çankırı",
      "latitude": 40.6,
      "longitude": 33.6166667
    },
    {
      "id": 19,
      "name": "Çorum",
      "latitude": 40.5505556,
      "longitude": 34.9555556
    },
    {
      "id": 20,
      "name": "Denizli",
      "latitude": 37.7666667,
      "longitude": 29.0833333
    },
    {
      "id": 21,
      "name": "Diyarbakır",
      "latitude": 37.9144444,
      "longitude": 40.2306111
    },
    {
      "id": 22,
      "name": "Edirne",
      "latitude": 41.6833333,
      "longitude": 26.5666667
    },
    {
      "id": 23,
      "name": "Elazığ",
      "latitude": 38.6833333,
      "longitude": 39.2166667
    },
    {
      "id": 24,
      "name": "Erzincan",
      "latitude": 39.7566667,
      "longitude": 39.4916667
    },
    {
      "id": 25,
      "name": "Erzurum",
      "latitude": 39.9066667,
      "longitude": 41.2766667
    },
    {
      "id": 26,
      "name": "Eskişehir",
      "latitude": 39.7838889,
      "longitude": 30.5197222
    },
    {
      "id": 27,
      "name": "Gaziantep",
      "latitude": 37.0666667,
      "longitude": 37.3833333
    },
    {
      "id": 28,
      "name": "Giresun",
      "latitude": 40.9166667,
      "longitude": 38.4166667
    },
    {
      "id": 29,
      "name": "Gümüşhane",
      "latitude": 40.4627778,
      "longitude": 39.4838889
    },
    {
      "id": 30,
      "name": "Hakkari",
      "latitude": 37.5833333,
      "longitude": 43.7333333
    },
    {
      "id": 31,
      "name": "Hatay",
      "latitude": 36.2166667,
      "longitude": 36.1666667
    },
    {
      "id": 32,
      "name": "Isparta",
      "latitude": 37.7666667,
      "longitude": 30.55
    },
    {
      "id": 33,
      "name": "İçel (Mersin)",
      "latitude": 36.8,
      "longitude": 34.6166667
    },
    {
      "id": 34,
      "name": "İstanbul",
      "latitude": 41.01,
      "longitude": 28.9833333
    },
    {
      "id": 35,
      "name": "İzmir",
      "latitude": 38.4166667,
      "longitude": 27.15
    },
    {
      "id": 36,
      "name": "Kars",
      "latitude": 40.6166667,
      "longitude": 43.1
    },
    {
      "id": 37,
      "name": "Kastamonu",
      "latitude": 41.3833333,
      "longitude": 33.7833333
    },
    {
      "id": 38,
      "name": "Kayseri",
      "latitude": 38.7333333,
      "longitude": 35.4833333
    },
    {
      "id": 39,
      "name": "Kırklareli",
      "latitude": 41.7333333,
      "longitude": 27.2166667
    },
    {
      "id": 40,
      "name": "Kırşehir",
      "latitude": 39.15,
      "longitude": 34.1666667
    },
    {
      "id": 41,
      "name": "Kocaeli",
      "latitude": 40.7655556,
      "longitude": 29.9405556
    },
    {
      "id": 42,
      "name": "Konya",
      "latitude": 37.8666667,
      "longitude": 32.4833333
    },
    {
      "id": 43,
      "name": "Kütahya",
      "latitude": 39.4166667,
      "longitude": 29.9833333
    },
    {
      "id": 44,
      "name": "Malatya",
      "latitude": 38.35,
      "longitude": 38.3166667
    },
    {
      "id": 45,
      "name": "Manisa",
      "latitude": 38.6166667,
      "longitude": 27.4166667
    },
    {
      "id": 46,
      "name": "Kahramanmaraş",
      "latitude": 37.5833333,
      "longitude": 36.9333333
    },
    {
      "id": 47,
      "name": "Mardin",
      "latitude": 37.3166667,
      "longitude": 40.7333333
    },
    {
      "id": 48,
      "name": "Muğla",
      "latitude": 37.2158333,
      "longitude": 28.3619444
    },
    {
      "id": 49,
      "name": "Muş",
      "latitude": 38.7333333,
      "longitude": 41.5
    },
    {
      "id": 50,
      "name": "Nevşehir",
      "latitude": 38.6244444,
      "longitude": 34.7238889
    },
    {
      "id": 51,
      "name": "Niğde",
      "latitude": 37.9666667,
      "longitude": 34.6833333
    },
    {
      "id": 52,
      "name": "Ordu",
      "latitude": 40.9833333,
      "longitude": 37.8833333
    },
    {
      "id": 53,
      "name": "Rize",
      "latitude": 41.02,
      "longitude": 40.5233333
    },
    {
      "id": 54,
      "name": "Sakarya",
      "latitude": 40.7833333,
      "longitude": 30.4166667
    },
    {
      "id": 55,
      "name": "Samsun",
      "latitude": 41.2927778,
      "longitude": 36.3313889
    },
    {
      "id": 56,
      "name": "Siirt",
      "latitude": 37.9333333,
      "longitude": 41.95
    },
    {
      "id": 57,
      "name": "Sinop",
      "latitude": 42.0264814,
      "longitude": 35.1550717
    },
    {
      "id": 58,
      "name": "Sivas",
      "latitude": 39.7477778,
      "longitude": 37.0172222
    },
    {
      "id": 59,
      "name": "Tekirdağ",
      "latitude": 40.9833333,
      "longitude": 27.5166667
    },
    {
      "id": 60,
      "name": "Tokat",
      "latitude": 40.3166667,
      "longitude": 36.55
    },
    {
      "id": 61,
      "name": "Trabzon",
      "latitude": 41.0,
      "longitude": 39.7333333
    },
    {
      "id": 62,
      "name": "Tunceli",
      "latitude": 39.1166667,
      "longitude": 39.5333333
    },
    {
      "id": 63,
      "name": "Şanlıurfa",
      "latitude": 37.15,
      "longitude": 38.8
    },
    {
      "id": 64,
      "name": "Uşak",
      "latitude": 38.6833333,
      "longitude": 29.4166667
    },
    {
      "id": 65,
      "name": "Van",
      "latitude": 38.5,
      "longitude": 43.4
    },
    {
      "id": 66,
      "name": "Yozgat",
      "latitude": 39.8244444,
      "longitude": 34.8086111
    },
    {
      "id": 67,
      "name": "Zonguldak",
      "latitude": 41.4561111,
      "longitude": 31.7888889
    },
    {
      "id": 68,
      "name": "Aksaray",
      "latitude": 38.3688889,
      "longitude": 34.0361111
    },
    {
      "id": 69,
      "name": "Bayburt",
      "latitude": 40.255,
      "longitude": 40.2277778
    },
    {
      "id": 70,
      "name": "Karaman",
      "latitude": 37.175,
      "longitude": 33.2252778
    },
    {
      "id": 71,
      "name": "Kırıkkale",
      "latitude": 39.85,
      "longitude": 33.5166667
    },
    {
      "id": 72,
      "name": "Batman",
      "latitude": 37.8833333,
      "longitude": 41.1333333
    },
    {
      "id": 73,
      "name": "Şırnak",
      "latitude": 37.5194444,
      "longitude": 42.4541667
    },
    {
      "id": 74,
      "name": "Bartın",
      "latitude": 41.6344444,
      "longitude": 32.3375
    },
    {
      "id": 75,
      "name": "Ardahan",
      "latitude": 41.1083333,
      "longitude": 42.7022222
    },
    {
      "id": 76,
      "name": "Iğdır",
      "latitude": 39.9166667,
      "longitude": 44.0333333
    },
    {
      "id": 77,
      "name": "Yalova",
      "latitude": 40.65,
      "longitude": 29.2666667
    },
    {
      "id": 78,
      "name": "Karabük",
      "latitude": 41.2,
      "longitude": 32.6277778
    },
    {
      "id": 79,
      "name": "Kilis",
      "latitude": 36.7166667,
      "longitude": 37.1166667
    },
    {
      "id": 80,
      "name": "Osmaniye",
      "latitude": 37.075,
      "longitude": 36.25
    },
    {
      "id": 81,
      "name": "Düzce",
      "latitude": 40.8388889,
      "longitude": 31.1638889
    }
  ]